[
  {
    "id": 1304841787,
    "name": "La Galería Café",
    "category": "Restaurante",
    "group": "Gastronomía",
    "lat": 25.6663565,
    "lng": -100.3075146,
    "address": "Centro, Monterrey",
    "description": "Cocina: international",
    "isPremium": true,
    "image": "https://images.unsplash.com/photo-1517248135467-4c7edcad34c4?w=800&q=80"
  },
  {
    "id": 1304896228,
    "name": "Tenerias",
    "category": "Restaurante",
    "group": "Gastronomía",
    "lat": 25.6705029,
    "lng": -100.305995,
    "address": "Centro, Monterrey",
    "description": "Negocio local en el centro.",
    "isPremium": false
  },
  {
    "id": 1305044105,
    "name": "Neuquen",
    "category": "Restaurante",
    "group": "Gastronomía",
    "lat": 25.669773,
    "lng": -100.3083402,
    "address": "Dr. Jose María Coss 659",
    "description": "Cocina: argentinian",
    "isPremium": false
  },
  {
    "id": 1354211191,
    "name": "Madre Oaxaca",
    "category": "Restaurante",
    "group": "Gastronomía",
    "lat": 25.6650012,
    "lng": -100.3089142,
    "address": "Centro, Monterrey",
    "description": "Cocina: mexican",
    "isPremium": false
  },
  {
    "id": 1387117646,
    "name": "Sierra Madre Brewing Co",
    "category": "Restaurante",
    "group": "Gastronomía",
    "lat": 25.666908,
    "lng": -100.3110266,
    "address": "Centro, Monterrey",
    "description": "Negocio local en el centro.",
    "isPremium": false
  },
  {
    "id": 1518144827,
    "name": "Gorditas Doña Tota",
    "category": "Comida Rápida",
    "group": "Gastronomía",
    "lat": 25.6716873,
    "lng": -100.3334252,
    "address": "Centro, Monterrey",
    "description": "Cocina: mexican",
    "isPremium": false
  },
  {
    "id": 1771630226,
    "name": "Abarrotes el Güero",
    "category": "Tienda de Abarrotes",
    "group": "Tiendas y Variedades",
    "lat": 25.6507062,
    "lng": -100.3079481,
    "address": "Centro, Monterrey",
    "description": "Negocio local en el centro.",
    "isPremium": true,
    "image": "https://images.unsplash.com/photo-1517248135467-4c7edcad34c4?w=800&q=80"
  },
  {
    "id": 2015236323,
    "name": "Tacos Rafa",
    "category": "Restaurante",
    "group": "Gastronomía",
    "lat": 25.658962,
    "lng": -100.296322,
    "address": "Centro, Monterrey",
    "description": "Cocina: mexican",
    "isPremium": false
  },
  {
    "id": 2077113406,
    "name": "La Casa del Maiz",
    "category": "Restaurante",
    "group": "Gastronomía",
    "lat": 25.6656852,
    "lng": -100.3080559,
    "address": "Centro, Monterrey",
    "description": "Cocina: mexican",
    "isPremium": false
  },
  {
    "id": 2077113407,
    "name": "Trece Lunas",
    "category": "Cafetería",
    "group": "Gastronomía",
    "lat": 25.6656927,
    "lng": -100.3081324,
    "address": "José Mariano Abasolo ",
    "description": "Negocio local en el centro.",
    "isPremium": false
  },
  {
    "id": 2121903778,
    "name": "San Luisito",
    "category": "Restaurante",
    "group": "Gastronomía",
    "lat": 25.6713228,
    "lng": -100.3065444,
    "address": "Centro, Monterrey",
    "description": "Cocina: regional",
    "isPremium": false
  },
  {
    "id": 2276211392,
    "name": "Porrúa",
    "category": "Librería",
    "group": "Tiendas y Variedades",
    "lat": 25.6681642,
    "lng": -100.3115772,
    "address": "Centro, Monterrey",
    "description": "Negocio local en el centro.",
    "isPremium": false
  },
  {
    "id": 2276211401,
    "name": "Vips",
    "category": "Restaurante",
    "group": "Gastronomía",
    "lat": 25.6683681,
    "lng": -100.313004,
    "address": "Centro, Monterrey",
    "description": "Cocina: mexican",
    "isPremium": false
  },
  {
    "id": 2313663667,
    "name": "La Carreta",
    "category": "Pub",
    "group": "Gastronomía",
    "lat": 25.6822534,
    "lng": -100.2998885,
    "address": "Centro, Monterrey",
    "description": "Negocio local en el centro.",
    "isPremium": true,
    "image": "https://images.unsplash.com/photo-1517248135467-4c7edcad34c4?w=800&q=80"
  },
  {
    "id": 2313663668,
    "name": "Tacos Don Lacho",
    "category": "Comida Rápida",
    "group": "Gastronomía",
    "lat": 25.6792487,
    "lng": -100.300475,
    "address": "Centro, Monterrey",
    "description": "Cocina: tacos",
    "isPremium": false
  },
  {
    "id": 2392312153,
    "name": "Pan de Barro",
    "category": "Panadería",
    "group": "Gastronomía",
    "lat": 25.6702469,
    "lng": -100.3285602,
    "address": "Centro, Monterrey",
    "description": "Negocio local en el centro.",
    "isPremium": false
  },
  {
    "id": 2392312192,
    "name": "Andolini",
    "category": "Restaurante",
    "group": "Gastronomía",
    "lat": 25.6660332,
    "lng": -100.3054798,
    "address": "Centro, Monterrey",
    "description": "Cocina: italian",
    "isPremium": false
  },
  {
    "id": 2392312311,
    "name": "Govinda",
    "category": "Restaurante",
    "group": "Gastronomía",
    "lat": 25.6702034,
    "lng": -100.3052008,
    "address": "Centro, Monterrey",
    "description": "Negocio local en el centro.",
    "isPremium": false
  },
  {
    "id": 2392312692,
    "name": "Arlecchino",
    "category": "Restaurante",
    "group": "Gastronomía",
    "lat": 25.6773541,
    "lng": -100.2944505,
    "address": "Adolfo Prieto 2108 ",
    "description": "Cocina: italian",
    "isPremium": false
  },
  {
    "id": 2414233930,
    "name": "Café Nuevo Brasil",
    "category": "Cafetería",
    "group": "Gastronomía",
    "lat": 25.6747534,
    "lng": -100.309767,
    "address": "Centro, Monterrey",
    "description": "Negocio local en el centro.",
    "isPremium": true,
    "image": "https://images.unsplash.com/photo-1517248135467-4c7edcad34c4?w=800&q=80"
  },
  {
    "id": 2639961933,
    "name": "Bricos",
    "category": "Ferretería",
    "group": "Hogar y Mantenimiento",
    "lat": 25.6843109,
    "lng": -100.319493,
    "address": "Av. Francisco I. Madero 718 Pte",
    "description": "Negocio local en el centro.",
    "isPremium": false
  },
  {
    "id": 2642874091,
    "name": "Montana",
    "category": "Restaurante",
    "group": "Gastronomía",
    "lat": 25.6678371,
    "lng": -100.3171891,
    "address": "Centro, Monterrey",
    "description": "Negocio local en el centro.",
    "isPremium": false
  },
  {
    "id": 3521828417,
    "name": "Josephino's",
    "category": "Comida Rápida",
    "group": "Gastronomía",
    "lat": 25.6681846,
    "lng": -100.3107531,
    "address": "Centro, Monterrey",
    "description": "Negocio local en el centro.",
    "isPremium": true,
    "image": "https://images.unsplash.com/photo-1517248135467-4c7edcad34c4?w=800&q=80"
  },
  {
    "id": 3786396208,
    "name": "Sanborns",
    "category": "Tienda de Abarrotes",
    "group": "Tiendas y Variedades",
    "lat": 25.6671364,
    "lng": -100.312326,
    "address": "Centro, Monterrey",
    "description": "Negocio local en el centro.",
    "isPremium": false
  },
  {
    "id": 3786486994,
    "name": "El Pollo Loco",
    "category": "Comida Rápida",
    "group": "Gastronomía",
    "lat": 25.6694766,
    "lng": -100.315154,
    "address": "Benito Juárez 701",
    "description": "Cocina: mexican",
    "isPremium": true,
    "image": "https://images.unsplash.com/photo-1517248135467-4c7edcad34c4?w=800&q=80"
  },
  {
    "id": 3786487037,
    "name": "El Pollo Loco",
    "category": "Comida Rápida",
    "group": "Gastronomía",
    "lat": 25.6822048,
    "lng": -100.299451,
    "address": "Centro, Monterrey",
    "description": "Cocina: mexican",
    "isPremium": false
  },
  {
    "id": 3786488958,
    "name": "Crocs",
    "category": "Zapatería",
    "group": "Tiendas y Variedades",
    "lat": 25.6759468,
    "lng": -100.297596,
    "address": "Centro, Monterrey",
    "description": "Negocio local en el centro.",
    "isPremium": false
  },
  {
    "id": 3786489064,
    "name": "El Rey del Cabrito",
    "category": "Restaurante",
    "group": "Gastronomía",
    "lat": 25.6637248,
    "lng": -100.3092109,
    "address": "Av. Constitución ",
    "description": "Cocina: regional",
    "isPremium": false
  },
  {
    "id": 3786489070,
    "name": "Nueva Luna Margaritas & Grill",
    "category": "Restaurante",
    "group": "Gastronomía",
    "lat": 25.6672905,
    "lng": -100.3088412,
    "address": "Centro, Monterrey",
    "description": "Negocio local en el centro.",
    "isPremium": false
  },
  {
    "id": 3786489080,
    "name": "La Casona de Sta Lucía",
    "category": "Restaurante",
    "group": "Gastronomía",
    "lat": 25.670334,
    "lng": -100.3061633,
    "address": "Centro, Monterrey",
    "description": "Negocio local en el centro.",
    "isPremium": false
  },
  {
    "id": 3786608486,
    "name": "josephino´s",
    "category": "Comida Rápida",
    "group": "Gastronomía",
    "lat": 25.6687679,
    "lng": -100.3186574,
    "address": "Centro, Monterrey",
    "description": "Cocina: pizza",
    "isPremium": false
  },
  {
    "id": 3786608529,
    "name": "Libreria Ghandi",
    "category": "Librería",
    "group": "Tiendas y Variedades",
    "lat": 25.6702897,
    "lng": -100.331758,
    "address": "Centro, Monterrey",
    "description": "Negocio local en el centro.",
    "isPremium": false
  },
  {
    "id": 3822055924,
    "name": "Caperucita",
    "category": "Ropa",
    "group": "Tiendas y Variedades",
    "lat": 25.6675395,
    "lng": -100.3152238,
    "address": "Centro, Monterrey",
    "description": "Negocio local en el centro.",
    "isPremium": false
  },
  {
    "id": 3822055930,
    "name": "Iusacell",
    "category": "Celulares",
    "group": "Tiendas y Variedades",
    "lat": 25.6678707,
    "lng": -100.3132443,
    "address": "Centro, Monterrey",
    "description": "Negocio local en el centro.",
    "isPremium": false
  },
  {
    "id": 3827635708,
    "name": "Las Alitas",
    "category": "Comida Rápida",
    "group": "Gastronomía",
    "lat": 25.6680393,
    "lng": -100.3108214,
    "address": "Centro, Monterrey",
    "description": "Negocio local en el centro.",
    "isPremium": false
  },
  {
    "id": 4052000619,
    "name": "La Anácua",
    "category": "Restaurante",
    "group": "Gastronomía",
    "lat": 25.6639715,
    "lng": -100.3077389,
    "address": "Centro, Monterrey",
    "description": "Negocio local en el centro.",
    "isPremium": false
  },
  {
    "id": 4052000620,
    "name": "Feelgrow",
    "category": "Restaurante",
    "group": "Gastronomía",
    "lat": 25.6663112,
    "lng": -100.3089321,
    "address": "Centro, Monterrey",
    "description": "Negocio local en el centro.",
    "isPremium": false
  },
  {
    "id": 4052000621,
    "name": "Cafe Iguana",
    "category": "Bar",
    "group": "Gastronomía",
    "lat": 25.666705,
    "lng": -100.3074137,
    "address": "Centro, Monterrey",
    "description": "Negocio local en el centro.",
    "isPremium": false
  },
  {
    "id": 4052000622,
    "name": "Salón Morelos",
    "category": "Bar",
    "group": "Gastronomía",
    "lat": 25.6664995,
    "lng": -100.3070811,
    "address": "Centro, Monterrey",
    "description": "Negocio local en el centro.",
    "isPremium": true,
    "image": "https://images.unsplash.com/photo-1517248135467-4c7edcad34c4?w=800&q=80"
  },
  {
    "id": 4052000623,
    "name": "La Chunga",
    "category": "Restaurante",
    "group": "Gastronomía",
    "lat": 25.6662481,
    "lng": -100.306885,
    "address": "Centro, Monterrey",
    "description": "Negocio local en el centro.",
    "isPremium": false
  },
  {
    "id": 4052000624,
    "name": "Punta del Cielo",
    "category": "Cafetería",
    "group": "Gastronomía",
    "lat": 25.669108,
    "lng": -100.3084946,
    "address": "Centro, Monterrey",
    "description": "Negocio local en el centro.",
    "isPremium": false
  },
  {
    "id": 4052000626,
    "name": "Tierra Libre",
    "category": "Cafetería",
    "group": "Gastronomía",
    "lat": 25.6682227,
    "lng": -100.3064199,
    "address": "Centro, Monterrey",
    "description": "Negocio local en el centro.",
    "isPremium": true,
    "image": "https://images.unsplash.com/photo-1517248135467-4c7edcad34c4?w=800&q=80"
  },
  {
    "id": 4052000631,
    "name": "Las Mariposas",
    "category": "Restaurante",
    "group": "Gastronomía",
    "lat": 25.670729,
    "lng": -100.307481,
    "address": "Centro, Monterrey",
    "description": "Negocio local en el centro.",
    "isPremium": true,
    "image": "https://images.unsplash.com/photo-1517248135467-4c7edcad34c4?w=800&q=80"
  },
  {
    "id": 4100720493,
    "name": "Servicios Técnicos Aguilar",
    "category": "Electrónica",
    "group": "Tiendas y Variedades",
    "lat": 25.6803684,
    "lng": -100.3011272,
    "address": "Centro, Monterrey",
    "description": "Negocio local en el centro.",
    "isPremium": false
  },
  {
    "id": 4115683100,
    "name": "3 Hermanos",
    "category": "Zapatería",
    "group": "Tiendas y Variedades",
    "lat": 25.675109,
    "lng": -100.3143453,
    "address": "Benito Juárez ",
    "description": "Negocio local en el centro.",
    "isPremium": false
  },
  {
    "id": 4210846589,
    "name": "Amatle Café Orgánico & Hostal",
    "category": "Cafetería",
    "group": "Gastronomía",
    "lat": 25.6657887,
    "lng": -100.307623,
    "address": "José Mariano Abasolo 881",
    "description": "Negocio local en el centro.",
    "isPremium": false
  },
  {
    "id": 4218096098,
    "name": "Parisina",
    "category": "Papelería",
    "group": "Tiendas y Variedades",
    "lat": 25.6686253,
    "lng": -100.3145173,
    "address": "Centro, Monterrey",
    "description": "Negocio local en el centro.",
    "isPremium": false
  },
  {
    "id": 4218096102,
    "name": "Plaza Mayoreo",
    "category": "Zapatería",
    "group": "Tiendas y Variedades",
    "lat": 25.6682904,
    "lng": -100.3143014,
    "address": "Centro, Monterrey",
    "description": "Negocio local en el centro.",
    "isPremium": false
  },
  {
    "id": 4309941790,
    "name": "Las Pampas",
    "category": "Restaurante",
    "group": "Gastronomía",
    "lat": 25.6547954,
    "lng": -100.2942082,
    "address": "Centro, Monterrey",
    "description": "Negocio local en el centro.",
    "isPremium": false
  },
  {
    "id": 4325470857,
    "name": "Ruben´s",
    "category": "Ropa",
    "group": "Tiendas y Variedades",
    "lat": 25.6807784,
    "lng": -100.3140463,
    "address": "Centro, Monterrey",
    "description": "Negocio local en el centro.",
    "isPremium": false
  },
  {
    "id": 4325470896,
    "name": "Felipe Guerra Castro",
    "category": "Public_bookcase",
    "group": "Tiendas y Variedades",
    "lat": 25.6798881,
    "lng": -100.3135503,
    "address": "Centro, Monterrey",
    "description": "Negocio local en el centro.",
    "isPremium": false
  },
  {
    "id": 4325470900,
    "name": "El Asturiano",
    "category": "Ropa",
    "group": "Tiendas y Variedades",
    "lat": 25.6800548,
    "lng": -100.3135788,
    "address": "Centro, Monterrey",
    "description": "Negocio local en el centro.",
    "isPremium": false
  },
  {
    "id": 4325470916,
    "name": "El Asturiano",
    "category": "Ropa",
    "group": "Tiendas y Variedades",
    "lat": 25.6796976,
    "lng": -100.3130523,
    "address": "Centro, Monterrey",
    "description": "Negocio local en el centro.",
    "isPremium": false
  },
  {
    "id": 4325550764,
    "name": "Saldaña",
    "category": "Librería",
    "group": "Tiendas y Variedades",
    "lat": 25.6779156,
    "lng": -100.3137328,
    "address": "Centro, Monterrey",
    "description": "Negocio local en el centro.",
    "isPremium": false
  },
  {
    "id": 4325550835,
    "name": "El Globo",
    "category": "Ropa",
    "group": "Tiendas y Variedades",
    "lat": 25.6764995,
    "lng": -100.3145256,
    "address": "Centro, Monterrey",
    "description": "Negocio local en el centro.",
    "isPremium": false
  },
  {
    "id": 4325664543,
    "name": "Los Angeles",
    "category": "Librería",
    "group": "Tiendas y Variedades",
    "lat": 25.6742722,
    "lng": -100.3141686,
    "address": "Centro, Monterrey",
    "description": "Negocio local en el centro.",
    "isPremium": false
  },
  {
    "id": 4325664544,
    "name": "La Patria",
    "category": "Librería",
    "group": "Tiendas y Variedades",
    "lat": 25.674268,
    "lng": -100.3139398,
    "address": "Centro, Monterrey",
    "description": "Negocio local en el centro.",
    "isPremium": false
  },
  {
    "id": 4325997490,
    "name": "Hemsa",
    "category": "Papelería",
    "group": "Tiendas y Variedades",
    "lat": 25.6735074,
    "lng": -100.3152425,
    "address": "Centro, Monterrey",
    "description": "Negocio local en el centro.",
    "isPremium": false
  },
  {
    "id": 4325997557,
    "name": "La Hidalgo",
    "category": "Papelería",
    "group": "Tiendas y Variedades",
    "lat": 25.6704465,
    "lng": -100.3156062,
    "address": "Centro, Monterrey",
    "description": "Negocio local en el centro.",
    "isPremium": false
  },
  {
    "id": 4325997715,
    "name": "3 Hermanos",
    "category": "Zapatería",
    "group": "Tiendas y Variedades",
    "lat": 25.6705075,
    "lng": -100.3150178,
    "address": "Centro, Monterrey",
    "description": "Negocio local en el centro.",
    "isPremium": false
  },
  {
    "id": 4326048019,
    "name": "Steren",
    "category": "Electrónica",
    "group": "Tiendas y Variedades",
    "lat": 25.6854813,
    "lng": -100.3135675,
    "address": "Centro, Monterrey",
    "description": "Negocio local en el centro.",
    "isPremium": false
  },
  {
    "id": 4327463657,
    "name": "Mendez .Jr",
    "category": "Restaurante",
    "group": "Gastronomía",
    "lat": 25.6768907,
    "lng": -100.3193535,
    "address": "Centro, Monterrey",
    "description": "Cocina: mexican;tacos",
    "isPremium": true,
    "image": "https://images.unsplash.com/photo-1517248135467-4c7edcad34c4?w=800&q=80"
  },
  {
    "id": 4348728989,
    "name": "El Lindero",
    "category": "Restaurante",
    "group": "Gastronomía",
    "lat": 25.670654,
    "lng": -100.337355,
    "address": "Centro, Monterrey",
    "description": "Negocio local en el centro.",
    "isPremium": true,
    "image": "https://images.unsplash.com/photo-1517248135467-4c7edcad34c4?w=800&q=80"
  },
  {
    "id": 4506983525,
    "name": "El Galeon",
    "category": "Restaurante",
    "group": "Gastronomía",
    "lat": 25.6769883,
    "lng": -100.3230292,
    "address": "Centro, Monterrey",
    "description": "Negocio local en el centro.",
    "isPremium": false
  },
  {
    "id": 4506983526,
    "name": "La Cocina de Honán",
    "category": "Restaurante",
    "group": "Gastronomía",
    "lat": 25.6768425,
    "lng": -100.3230215,
    "address": "Centro, Monterrey",
    "description": "Negocio local en el centro.",
    "isPremium": false
  },
  {
    "id": 4506983527,
    "name": "Los Cabritos",
    "category": "Restaurante",
    "group": "Gastronomía",
    "lat": 25.6770049,
    "lng": -100.3231663,
    "address": "Centro, Monterrey",
    "description": "Negocio local en el centro.",
    "isPremium": false
  },
  {
    "id": 4589593421,
    "name": "York Restaurant",
    "category": "Restaurante",
    "group": "Gastronomía",
    "lat": 25.6839464,
    "lng": -100.311448,
    "address": "Centro, Monterrey",
    "description": "Negocio local en el centro.",
    "isPremium": false
  },
  {
    "id": 4844550889,
    "name": "Cafetería U-ERRE",
    "category": "Cafetería",
    "group": "Gastronomía",
    "lat": 25.6723719,
    "lng": -100.3216577,
    "address": "Calle 15 de Mayo ",
    "description": "Negocio local en el centro.",
    "isPremium": false
  },
  {
    "id": 4862706148,
    "name": "Comidas Caseras, La Tía Mary",
    "category": "Restaurante",
    "group": "Gastronomía",
    "lat": 25.6782851,
    "lng": -100.329376,
    "address": "Calle América 111 Nte.",
    "description": "Cocina: regional",
    "isPremium": false
  },
  {
    "id": 4868836046,
    "name": "LUMEN",
    "category": "Papelería",
    "group": "Tiendas y Variedades",
    "lat": 25.6710079,
    "lng": -100.3235102,
    "address": "Calle Mariano Matamoros ",
    "description": "Negocio local en el centro.",
    "isPremium": false
  },
  {
    "id": 4868842728,
    "name": "Ángel Color",
    "category": "Fotografía",
    "group": "Servicios Locales",
    "lat": 25.6715685,
    "lng": -100.3186686,
    "address": "Centro, Monterrey",
    "description": "Negocio local en el centro.",
    "isPremium": true,
    "image": "https://images.unsplash.com/photo-1517248135467-4c7edcad34c4?w=800&q=80"
  },
  {
    "id": 4870728404,
    "name": "La tías",
    "category": "Restaurante",
    "group": "Gastronomía",
    "lat": 25.671665,
    "lng": -100.3227262,
    "address": "Juan Ignacio Ramón ",
    "description": "Negocio local en el centro.",
    "isPremium": false
  },
  {
    "id": 4872700761,
    "name": "El Cafelito",
    "category": "Cafetería",
    "group": "Gastronomía",
    "lat": 25.6663681,
    "lng": -100.3128838,
    "address": "Hidalgo 433",
    "description": "Cocina: coffee_shop",
    "isPremium": false
  },
  {
    "id": 4873343583,
    "name": "Abuela Victoria",
    "category": "Cafetería",
    "group": "Gastronomía",
    "lat": 25.6665094,
    "lng": -100.3144059,
    "address": "Galeana 1018-2,",
    "description": "Cocina: coffee_shop",
    "isPremium": false
  },
  {
    "id": 4876426923,
    "name": "Las Corridas",
    "category": "Panadería",
    "group": "Gastronomía",
    "lat": 25.6723924,
    "lng": -100.3217948,
    "address": "Centro, Monterrey",
    "description": "Negocio local en el centro.",
    "isPremium": false
  },
  {
    "id": 4876428393,
    "name": "Las Corridas",
    "category": "Restaurante",
    "group": "Gastronomía",
    "lat": 25.6724213,
    "lng": -100.3220942,
    "address": "Centro, Monterrey",
    "description": "Negocio local en el centro.",
    "isPremium": false
  },
  {
    "id": 4876433386,
    "name": "7 - Eleven",
    "category": "Cafetería",
    "group": "Gastronomía",
    "lat": 25.6723991,
    "lng": -100.3218807,
    "address": "Centro, Monterrey",
    "description": "Negocio local en el centro.",
    "isPremium": true,
    "image": "https://images.unsplash.com/photo-1517248135467-4c7edcad34c4?w=800&q=80"
  },
  {
    "id": 4876433745,
    "name": "HotDog\"S",
    "category": "Comida Rápida",
    "group": "Gastronomía",
    "lat": 25.6723223,
    "lng": -100.3193799,
    "address": "15 de Mayo ",
    "description": "Cocina: tacos",
    "isPremium": true,
    "image": "https://images.unsplash.com/photo-1517248135467-4c7edcad34c4?w=800&q=80"
  },
  {
    "id": 4876436721,
    "name": "QKing Pizza",
    "category": "Restaurante",
    "group": "Gastronomía",
    "lat": 25.6725174,
    "lng": -100.3214694,
    "address": "Centro, Monterrey",
    "description": "Negocio local en el centro.",
    "isPremium": false
  },
  {
    "id": 4876449463,
    "name": "Skimo",
    "category": "Cafetería",
    "group": "Gastronomía",
    "lat": 25.6723494,
    "lng": -100.3206165,
    "address": "Centro, Monterrey",
    "description": "Negocio local en el centro.",
    "isPremium": false
  },
  {
    "id": 4938814828,
    "name": "Del cabrito",
    "category": "Restaurante",
    "group": "Gastronomía",
    "lat": 25.6727485,
    "lng": -100.3258844,
    "address": "Profr. José Silvestre Aramberri ",
    "description": "Cocina: regional",
    "isPremium": false
  },
  {
    "id": 4938818979,
    "name": "tacos y gorditas del comal a su boca",
    "category": "Restaurante",
    "group": "Gastronomía",
    "lat": 25.677195,
    "lng": -100.3247178,
    "address": "Calle Profesor José Silvestre Aramberri 1190",
    "description": "Cocina: mexican",
    "isPremium": false
  },
  {
    "id": 4945963312,
    "name": "comidas caseras",
    "category": "Restaurante",
    "group": "Gastronomía",
    "lat": 25.6754972,
    "lng": -100.3297624,
    "address": "calle america 329",
    "description": "Cocina: mexican",
    "isPremium": false
  },
  {
    "id": 4949423927,
    "name": "Rest-Bar El Ranchito",
    "category": "Bar",
    "group": "Gastronomía",
    "lat": 25.6756649,
    "lng": -100.3320757,
    "address": "Avenida Venustiano Carranza 327",
    "description": "Negocio local en el centro.",
    "isPremium": false
  },
  {
    "id": 4962727475,
    "name": "Six",
    "category": "Comida Rápida",
    "group": "Gastronomía",
    "lat": 25.677078,
    "lng": -100.3295179,
    "address": "Centro, Monterrey",
    "description": "Negocio local en el centro.",
    "isPremium": true,
    "image": "https://images.unsplash.com/photo-1517248135467-4c7edcad34c4?w=800&q=80"
  },
  {
    "id": 4962727496,
    "name": "Mariscos \"Charly\"",
    "category": "Restaurante",
    "group": "Gastronomía",
    "lat": 25.6775608,
    "lng": -100.3287502,
    "address": "Centro, Monterrey",
    "description": "Negocio local en el centro.",
    "isPremium": true,
    "image": "https://images.unsplash.com/photo-1517248135467-4c7edcad34c4?w=800&q=80"
  },
  {
    "id": 4964259926,
    "name": "Tacos primo",
    "category": "Restaurante",
    "group": "Gastronomía",
    "lat": 25.6775595,
    "lng": -100.330458,
    "address": "Calle Martín de Zavala 107",
    "description": "Cocina: regional",
    "isPremium": false
  },
  {
    "id": 4964265832,
    "name": "LA VILLA",
    "category": "Florería",
    "group": "Servicios Locales",
    "lat": 25.6772325,
    "lng": -100.3307482,
    "address": "Calle Martín de Zavala 190",
    "description": "Negocio local en el centro.",
    "isPremium": false
  },
  {
    "id": 4964342337,
    "name": "Los Condados",
    "category": "Comida Rápida",
    "group": "Gastronomía",
    "lat": 25.6773838,
    "lng": -100.3268211,
    "address": "Centro, Monterrey",
    "description": "Cocina: mexican;burger",
    "isPremium": false
  },
  {
    "id": 4964342338,
    "name": "Las Tres Tostadas",
    "category": "Comida Rápida",
    "group": "Gastronomía",
    "lat": 25.6775212,
    "lng": -100.3277496,
    "address": "Centro, Monterrey",
    "description": "Cocina: chicken;tacos;mexican;tortadas",
    "isPremium": false
  },
  {
    "id": 4964342342,
    "name": "Pollo Rico",
    "category": "Restaurante",
    "group": "Gastronomía",
    "lat": 25.6779688,
    "lng": -100.3315691,
    "address": "Profr. José Silvestre Aramberri 1866",
    "description": "Cocina: chicken",
    "isPremium": false
  },
  {
    "id": 4964342346,
    "name": "tulis",
    "category": "Florería",
    "group": "Servicios Locales",
    "lat": 25.6774904,
    "lng": -100.331605,
    "address": "Avenida Venustiano Carranza 179",
    "description": "Negocio local en el centro.",
    "isPremium": false
  },
  {
    "id": 4969215255,
    "name": "Candy House",
    "category": "Regalos",
    "group": "Tiendas y Variedades",
    "lat": 25.6728357,
    "lng": -100.3253145,
    "address": "Calle Serafín Peña 827",
    "description": "Negocio local en el centro.",
    "isPremium": false
  },
  {
    "id": 4980079546,
    "name": "Bolsas para Basura AMERICA",
    "category": "Tienda de Abarrotes",
    "group": "Tiendas y Variedades",
    "lat": 25.6736865,
    "lng": -100.330345,
    "address": "Calle América 475",
    "description": "Negocio local en el centro.",
    "isPremium": false
  },
  {
    "id": 4980445670,
    "name": "Floreria Millon de Rosas",
    "category": "Florería",
    "group": "Servicios Locales",
    "lat": 25.6753378,
    "lng": -100.332149,
    "address": "Calle 5 de Mayo 1403",
    "description": "Negocio local en el centro.",
    "isPremium": false
  },
  {
    "id": 4980445672,
    "name": "Floral Mexicana Norte",
    "category": "Florería",
    "group": "Servicios Locales",
    "lat": 25.6752917,
    "lng": -100.3321885,
    "address": "Avenida Venustiano Carranza 407",
    "description": "Negocio local en el centro.",
    "isPremium": false
  },
  {
    "id": 5015047724,
    "name": "Libreria conarte",
    "category": "Librería",
    "group": "Tiendas y Variedades",
    "lat": 25.6656632,
    "lng": -100.3069691,
    "address": "Centro, Monterrey",
    "description": "Negocio local en el centro.",
    "isPremium": false
  },
  {
    "id": 5025365225,
    "name": "El cabrito",
    "category": "Restaurante",
    "group": "Gastronomía",
    "lat": 25.6770516,
    "lng": -100.3232293,
    "address": "Calle José Silvestre Aramberri ",
    "description": "Cocina: regional",
    "isPremium": false
  },
  {
    "id": 5030970037,
    "name": "Fresitas",
    "category": "Cafetería",
    "group": "Gastronomía",
    "lat": 25.6773136,
    "lng": -100.3259425,
    "address": "Calle Profesor José Silvestre Aramberri 1314",
    "description": "Cocina: sandwich",
    "isPremium": false
  },
  {
    "id": 5031011987,
    "name": "La Favorita",
    "category": "Bar",
    "group": "Gastronomía",
    "lat": 25.6774015,
    "lng": -100.3266356,
    "address": "Calle Ignacio Luis Vallarta 100",
    "description": "Negocio local en el centro.",
    "isPremium": false
  },
  {
    "id": 5032100002,
    "name": "Heed Quick",
    "category": "Tintorería",
    "group": "Servicios Locales",
    "lat": 25.6774513,
    "lng": -100.326986,
    "address": "Centro, Monterrey",
    "description": "Negocio local en el centro.",
    "isPremium": false
  },
  {
    "id": 5258470816,
    "name": "Vegan wagen",
    "category": "Restaurante",
    "group": "Gastronomía",
    "lat": 25.6729826,
    "lng": -100.3277761,
    "address": "Ignacio Vallarta 514",
    "description": "Negocio local en el centro.",
    "isPremium": true,
    "image": "https://images.unsplash.com/photo-1517248135467-4c7edcad34c4?w=800&q=80"
  },
  {
    "id": 5452253421,
    "name": "Upper Pale",
    "category": "Regalos",
    "group": "Tiendas y Variedades",
    "lat": 25.6672168,
    "lng": -100.3062481,
    "address": "Centro, Monterrey",
    "description": "Negocio local en el centro.",
    "isPremium": false
  },
  {
    "id": 5640037634,
    "name": "Carl's Jr.",
    "category": "Comida Rápida",
    "group": "Gastronomía",
    "lat": 25.6685673,
    "lng": -100.3209163,
    "address": "Centro, Monterrey",
    "description": "Cocina: burger",
    "isPremium": false
  },
  {
    "id": 5748061921,
    "name": "Fonda El Limoncito",
    "category": "Restaurante",
    "group": "Gastronomía",
    "lat": 25.6640526,
    "lng": -100.3074939,
    "address": "Guillermo Prieto 938",
    "description": "Negocio local en el centro.",
    "isPremium": false
  },
  {
    "id": 5899729386,
    "name": "Menudo don Luis",
    "category": "Restaurante",
    "group": "Gastronomía",
    "lat": 25.6679051,
    "lng": -100.3254588,
    "address": "Ocampo ",
    "description": "Negocio local en el centro.",
    "isPremium": false
  },
  {
    "id": 5912294501,
    "name": "Camiseria Mexico",
    "category": "Ropa",
    "group": "Tiendas y Variedades",
    "lat": 25.6845888,
    "lng": -100.3176801,
    "address": "Centro, Monterrey",
    "description": "Negocio local en el centro.",
    "isPremium": false
  },
  {
    "id": 6157922886,
    "name": "Me Muero de Hambre",
    "category": "Restaurante",
    "group": "Gastronomía",
    "lat": 25.6662246,
    "lng": -100.3065869,
    "address": "Centro, Monterrey",
    "description": "Negocio local en el centro.",
    "isPremium": false
  },
  {
    "id": 6157922887,
    "name": "Etnia Café",
    "category": "Cafetería",
    "group": "Gastronomía",
    "lat": 25.6660284,
    "lng": -100.3067599,
    "address": "Centro, Monterrey",
    "description": "Negocio local en el centro.",
    "isPremium": false
  },
  {
    "id": 6160298888,
    "name": "La Divina",
    "category": "Restaurante",
    "group": "Gastronomía",
    "lat": 25.6712333,
    "lng": -100.3059771,
    "address": "Centro, Monterrey",
    "description": "Negocio local en el centro.",
    "isPremium": false
  },
  {
    "id": 6161836485,
    "name": "Cicero's",
    "category": "Bar",
    "group": "Gastronomía",
    "lat": 25.6660214,
    "lng": -100.3137857,
    "address": "Centro, Monterrey",
    "description": "Negocio local en el centro.",
    "isPremium": false
  },
  {
    "id": 6653492687,
    "name": "Innovasport Morelos",
    "category": "Ropa",
    "group": "Tiendas y Variedades",
    "lat": 25.6673134,
    "lng": -100.3117757,
    "address": "Morelos ",
    "description": "Negocio local en el centro.",
    "isPremium": false
  },
  {
    "id": 6894718085,
    "name": "Soy Barber Monterrey",
    "category": "Estética/Barbería",
    "group": "Personal y Cuidado",
    "lat": 25.6715065,
    "lng": -100.316773,
    "address": "Centro, Monterrey",
    "description": "Negocio local en el centro.",
    "isPremium": false
  },
  {
    "id": 7057453885,
    "name": "Almacén 42",
    "category": "Pub",
    "group": "Gastronomía",
    "lat": 25.6682987,
    "lng": -100.3079147,
    "address": "Jose María Morelos y Pavón 852",
    "description": "Negocio local en el centro.",
    "isPremium": false
  },
  {
    "id": 7061368085,
    "name": "Catrinas Chilaquiles",
    "category": "Restaurante",
    "group": "Gastronomía",
    "lat": 25.6684378,
    "lng": -100.3078272,
    "address": "Centro, Monterrey",
    "description": "Negocio local en el centro.",
    "isPremium": false
  },
  {
    "id": 7501216385,
    "name": "URBAN",
    "category": "Ropa",
    "group": "Tiendas y Variedades",
    "lat": 25.6727991,
    "lng": -100.3158079,
    "address": "Colegio Civil ",
    "description": "Negocio local en el centro.",
    "isPremium": false
  },
  {
    "id": 7619288985,
    "name": "El Leñador Barber Store Monterrey",
    "category": "Salón de Belleza",
    "group": "Personal y Cuidado",
    "lat": 25.6686169,
    "lng": -100.3275023,
    "address": "Centro, Monterrey",
    "description": "Negocio local en el centro.",
    "isPremium": false
  },
  {
    "id": 7755017687,
    "name": "MOTOCEL DE MONTERREY",
    "category": "Electrónica",
    "group": "Tiendas y Variedades",
    "lat": 25.6670884,
    "lng": -100.3159833,
    "address": "Centro, Monterrey",
    "description": "Negocio local en el centro.",
    "isPremium": false
  },
  {
    "id": 8120128818,
    "name": "Plaza del Audio",
    "category": "Electrónica",
    "group": "Tiendas y Variedades",
    "lat": 25.6667131,
    "lng": -100.3159926,
    "address": "Centro, Monterrey",
    "description": "Negocio local en el centro.",
    "isPremium": false
  },
  {
    "id": 8279158647,
    "name": "Tim Hortons",
    "category": "Cafetería",
    "group": "Gastronomía",
    "lat": 25.6618286,
    "lng": -100.306705,
    "address": "Avenida Doctor Ignacio Morones Prieto 1101 ORIENTE",
    "description": "Cocina: coffee_shop",
    "isPremium": false
  },
  {
    "id": 8523157525,
    "name": "Carl's Jr.",
    "category": "Comida Rápida",
    "group": "Gastronomía",
    "lat": 25.6698135,
    "lng": -100.333345,
    "address": "Centro, Monterrey",
    "description": "Cocina: burger",
    "isPremium": false
  },
  {
    "id": 8581086152,
    "name": "Steren",
    "category": "Electrónica",
    "group": "Tiendas y Variedades",
    "lat": 25.6859496,
    "lng": -100.3264355,
    "address": "Centro, Monterrey",
    "description": "Negocio local en el centro.",
    "isPremium": false
  },
  {
    "id": 8581086157,
    "name": "Plaza de la Tecnología",
    "category": "Electrónica",
    "group": "Tiendas y Variedades",
    "lat": 25.6674311,
    "lng": -100.3158627,
    "address": "Centro, Monterrey",
    "description": "Negocio local en el centro.",
    "isPremium": false
  },
  {
    "id": 8653477621,
    "name": "Church's Texas Chicken",
    "category": "Comida Rápida",
    "group": "Gastronomía",
    "lat": 25.6722454,
    "lng": -100.3199733,
    "address": "Calle 15 de Mayo 496A",
    "description": "Negocio local en el centro.",
    "isPremium": false
  },
  {
    "id": 8958755017,
    "name": "Thai Thai",
    "category": "Restaurante",
    "group": "Gastronomía",
    "lat": 25.6668998,
    "lng": -100.306233,
    "address": "Calle Padre Mier 1022",
    "description": "Cocina: asian;thai",
    "isPremium": false
  },
  {
    "id": 8958755018,
    "name": "La oveja negra",
    "category": "Bar",
    "group": "Gastronomía",
    "lat": 25.6663223,
    "lng": -100.307097,
    "address": "Calle José María Morelos y Pavón 924",
    "description": "Cocina: friture;local;regional",
    "isPremium": false
  },
  {
    "id": 9569876117,
    "name": "Joker",
    "category": "Comida Rápida",
    "group": "Gastronomía",
    "lat": 25.6678048,
    "lng": -100.3158479,
    "address": "Centro, Monterrey",
    "description": "Negocio local en el centro.",
    "isPremium": true,
    "image": "https://images.unsplash.com/photo-1517248135467-4c7edcad34c4?w=800&q=80"
  },
  {
    "id": 9572040217,
    "name": "Sayu Sayulita",
    "category": "Restaurante",
    "group": "Gastronomía",
    "lat": 25.6657552,
    "lng": -100.309036,
    "address": "Centro, Monterrey",
    "description": "Negocio local en el centro.",
    "isPremium": false
  },
  {
    "id": 9579675817,
    "name": "Nandas 78 bar",
    "category": "Bar",
    "group": "Gastronomía",
    "lat": 25.6732602,
    "lng": -100.3114077,
    "address": "Calle 5 de Mayo 431",
    "description": "Cocina: burger;diner;pizza",
    "isPremium": false
  },
  {
    "id": 9586700817,
    "name": "Almacen",
    "category": "Bar",
    "group": "Gastronomía",
    "lat": 25.6665285,
    "lng": -100.3081756,
    "address": "Centro, Monterrey",
    "description": "Negocio local en el centro.",
    "isPremium": false
  },
  {
    "id": 9586752217,
    "name": "Coss",
    "category": "Restaurante",
    "group": "Gastronomía",
    "lat": 25.6659274,
    "lng": -100.3090051,
    "address": "Centro, Monterrey",
    "description": "Negocio local en el centro.",
    "isPremium": false
  },
  {
    "id": 9601781317,
    "name": "Lavenderia",
    "category": "Lavandería",
    "group": "Servicios Locales",
    "lat": 25.6701175,
    "lng": -100.3002608,
    "address": "Centro, Monterrey",
    "description": "Negocio local en el centro.",
    "isPremium": false
  },
  {
    "id": 9601995117,
    "name": "Pollo Frito Yoya Chicken",
    "category": "Comida Rápida",
    "group": "Gastronomía",
    "lat": 25.6704926,
    "lng": -100.2995019,
    "address": "Centro, Monterrey",
    "description": "Negocio local en el centro.",
    "isPremium": false
  },
  {
    "id": 9604678617,
    "name": "Rockafella",
    "category": "Bar",
    "group": "Gastronomía",
    "lat": 25.6661795,
    "lng": -100.30573,
    "address": "Centro, Monterrey",
    "description": "Negocio local en el centro.",
    "isPremium": false
  },
  {
    "id": 9625443517,
    "name": "Ferreterías Calzada",
    "category": "Ferretería",
    "group": "Hogar y Mantenimiento",
    "lat": 25.6850718,
    "lng": -100.3206169,
    "address": "Centro, Monterrey",
    "description": "Negocio local en el centro.",
    "isPremium": false
  },
  {
    "id": 9644529217,
    "name": "Thai Thai",
    "category": "Restaurante",
    "group": "Gastronomía",
    "lat": 25.666811,
    "lng": -100.3062002,
    "address": "Calle Padre Mier 1022",
    "description": "Cocina: thai",
    "isPremium": false
  },
  {
    "id": 9752717917,
    "name": "Porfirio’s Bar",
    "category": "Bar",
    "group": "Gastronomía",
    "lat": 25.6702118,
    "lng": -100.3136347,
    "address": "Ignacio Allende 231",
    "description": "Cocina: burger;diner;grill",
    "isPremium": false
  },
  {
    "id": 9752718017,
    "name": "McMullens",
    "category": "Pub",
    "group": "Gastronomía",
    "lat": 25.6674583,
    "lng": -100.3072745,
    "address": "Calle Diego de Montemayor 843",
    "description": "Cocina: diner",
    "isPremium": false
  },
  {
    "id": 9752718117,
    "name": "The Escoces",
    "category": "Pub",
    "group": "Gastronomía",
    "lat": 25.6679761,
    "lng": -100.3072467,
    "address": "Calle Diego de Montemayor 808",
    "description": "Negocio local en el centro.",
    "isPremium": false
  },
  {
    "id": 9871115917,
    "name": "Al Restaurante",
    "category": "Restaurante",
    "group": "Gastronomía",
    "lat": 25.683368,
    "lng": -100.3091294,
    "address": "Calzada Francisco I. Madero 520",
    "description": "Cocina: breakfast;deli;diner;tea",
    "isPremium": false
  },
  {
    "id": 10295461309,
    "name": "Disfraces Monalisa",
    "category": "Cafetería",
    "group": "Gastronomía",
    "lat": 25.6708688,
    "lng": -100.3335783,
    "address": "Avenida Venustiano Carranza 742",
    "description": "Negocio local en el centro.",
    "isPremium": false
  },
  {
    "id": 10772668145,
    "name": "Promoda",
    "category": "Ropa",
    "group": "Tiendas y Variedades",
    "lat": 25.6677049,
    "lng": -100.3147834,
    "address": "Centro, Monterrey",
    "description": "Negocio local en el centro.",
    "isPremium": false
  },
  {
    "id": 10776499598,
    "name": "Callejon Dargon Monterrey",
    "category": "Restaurante",
    "group": "Gastronomía",
    "lat": 25.6684233,
    "lng": -100.3062208,
    "address": "Calle Francisco Javier Mina 754",
    "description": "Negocio local en el centro.",
    "isPremium": false
  },
  {
    "id": 10777317147,
    "name": "Trigo Limpio",
    "category": "Comida Rápida",
    "group": "Gastronomía",
    "lat": 25.6778829,
    "lng": -100.3091292,
    "address": "Centro, Monterrey",
    "description": "Negocio local en el centro.",
    "isPremium": false
  },
  {
    "id": 10968569358,
    "name": "Elotes buenos",
    "category": "Comida Rápida",
    "group": "Gastronomía",
    "lat": 25.6679885,
    "lng": -100.3276167,
    "address": "Centro, Monterrey",
    "description": "Negocio local en el centro.",
    "isPremium": false
  },
  {
    "id": 10979769005,
    "name": "Hamburguesas del río",
    "category": "Restaurante",
    "group": "Gastronomía",
    "lat": 25.6677924,
    "lng": -100.3323923,
    "address": "Avenida Constitución 1121",
    "description": "Negocio local en el centro.",
    "isPremium": true,
    "image": "https://images.unsplash.com/photo-1517248135467-4c7edcad34c4?w=800&q=80"
  },
  {
    "id": 11062663311,
    "name": "Botanero Moritas",
    "category": "Restaurante",
    "group": "Gastronomía",
    "lat": 25.6763539,
    "lng": -100.2903358,
    "address": "Av Fundidora 200, Obrera, 64800 Monterrey, N.L. Puntacero",
    "description": "Negocio local en el centro.",
    "isPremium": false
  },
  {
    "id": 11781149692,
    "name": "Vips",
    "category": "Restaurante",
    "group": "Gastronomía",
    "lat": 25.6664634,
    "lng": -100.3131926,
    "address": "Centro, Monterrey",
    "description": "Cocina: mexican",
    "isPremium": false
  },
  {
    "id": 11812557703,
    "name": "Amor amor",
    "category": "Cafetería",
    "group": "Gastronomía",
    "lat": 25.6707131,
    "lng": -100.3286002,
    "address": "Padre Mier 918",
    "description": "Negocio local en el centro.",
    "isPremium": false
  },
  {
    "id": 12059120526,
    "name": "MacStore",
    "category": "Electrónica",
    "group": "Tiendas y Variedades",
    "lat": 25.6651273,
    "lng": -100.3166836,
    "address": "Centro, Monterrey",
    "description": "Negocio local en el centro.",
    "isPremium": false
  },
  {
    "id": 12182886676,
    "name": "Tacos Lacho",
    "category": "Restaurante",
    "group": "Gastronomía",
    "lat": 25.6752354,
    "lng": -100.31425,
    "address": "Centro, Monterrey",
    "description": "Negocio local en el centro.",
    "isPremium": false
  },
  {
    "id": 12299747956,
    "name": "Tacos al Vapor el Gordo",
    "category": "Comida Rápida",
    "group": "Gastronomía",
    "lat": 25.6781637,
    "lng": -100.3162017,
    "address": "Calle Albino Espinosa 322",
    "description": "Cocina: regional;mexican",
    "isPremium": false
  },
  {
    "id": 12534639401,
    "name": "Charro Negro Bar",
    "category": "Bar",
    "group": "Gastronomía",
    "lat": 25.6723804,
    "lng": -100.3123101,
    "address": "Calle Emilio Carranza 452",
    "description": "Negocio local en el centro.",
    "isPremium": false
  },
  {
    "id": 13184285978,
    "name": "REYNALDO #311",
    "category": "Zapatería",
    "group": "Tiendas y Variedades",
    "lat": 25.6675466,
    "lng": -100.3135312,
    "address": "Centro, Monterrey",
    "description": "Negocio local en el centro.",
    "isPremium": false
  }
]